{
    "type": "FeatureCollection",
    "features": [
        {
            "type": "Feature",
            "properties": {
                "name": "The Man",
                "ref": "center"
            },
            "geometry": {
                "type": "Point",
                "coordinates": [
                    -119.20650000000002,
                    40.78640000000001
                ]
            }
        },
        {
            "type": "Feature",
            "properties": {
                "name": "Center Camp",
                "ref": "centerCamp"
            },
            "geometry": {
                "type": "Point",
                "coordinates": [
                    -119.2139388314801,
                    40.78076697117728
                ]
            }
        },
        {
            "type": "Feature",
            "properties": {
                "name": "DPW",
                "ref": "dpw"
            },
            "geometry": {
                "type": "Point",
                "coordinates": [
                    -119.21795214967386,
                    40.77137743011437
                ]
            }
        },
        {
            "type": "Feature",
            "properties": {
                "name": "Services",
                "ref": "services"
            },
            "geometry": {
                "type": "Point",
                "coordinates": [
                    -119.22633760069262,
                    40.777725343416044
                ]
            }
        },
        {
            "type": "Feature",
            "properties": {
                "name": "Black Rock City Airport",
                "ref": "airport"
            },
            "geometry": {
                "type": "Point",
                "coordinates": [
                    -119.2111183807707,
                    40.76431459231842
                ]
            }
        },
        {
            "type": "Feature",
            "properties": {
                "name": "First Aid (Main)",
                "ref": "EmergencyClinic"
            },
            "geometry": {
                "type": "Point",
                "coordinates": [
                    -119.20998399371751,
                    40.77987025844325
                ]
            }
        },
        {
            "type": "Feature",
            "properties": {
                "name": "First Aid (3:00)",
                "ref": "firstAid"
            },
            "geometry": {
                "type": "Point",
                "coordinates": [
                    -119.19767310241684,
                    40.779598005206324
                ]
            }
        },
        {
            "type": "Feature",
            "properties": {
                "name": "First Aid (9:00)",
                "ref": "firstAid"
            },
            "geometry": {
                "type": "Point",
                "coordinates": [
                    -119.21532870586502,
                    40.7932013220682
                ]
            }
        },
        {
            "type": "Feature",
            "properties": {
                "name": "First Aid (4:30)",
                "ref": "firstAid"
            },
            "geometry": {
                "type": "Point",
                "coordinates": [
                    -119.20664746419742,
                    40.773603421334855
                ]
            }
        },
        {
            "type": "Feature",
            "properties": {
                "name": "First Aid (7:30)",
                "ref": "firstAid"
            },
            "geometry": {
                "type": "Point",
                "coordinates": [
                    -119.22340100730062,
                    40.7865104411503
                ]
            }
        },
        {
            "type": "Feature",
            "properties": {
                "name": "Ranger HQ",
                "ref": "rangerHQ"
            },
            "geometry": {
                "type": "Point",
                "coordinates": [
                    -119.21145624023596,
                    40.78123445672683
                ]
            }
        },
        {
            "type": "Feature",
            "properties": {
                "name": "Ranger Outpost (Berlin)",
                "ref": "ranger"
            },
            "geometry": {
                "type": "Point",
                "coordinates": [
                    -119.19751766784857,
                    40.77971568056505
                ]
            }
        },
        {
            "type": "Feature",
            "properties": {
                "name": "Ranger Outpost (Tokyo)",
                "ref": "ranger"
            },
            "geometry": {
                "type": "Point",
                "coordinates": [
                    -119.21548414043332,
                    40.79308362281104
                ]
            }
        },
        {
            "type": "Feature",
            "properties": {
                "name": "Greeters",
                "ref": "greeters"
            },
            "geometry": {
                "type": "Point",
                "coordinates": [
                    -119.22338716846141,
                    40.77361018495084
                ]
            }
        },
        {
            "type": "Feature",
            "properties": {
                "name": "First Aid (Temple)",
                "ref": "firstAid"
            },
            "geometry": {
                "type": "Point",
                "coordinates": [
                    -119.2034067789011,
                    40.789744559676684
                ]
            }
        },
        {
            "type": "Feature",
            "properties": {
                "ref": "ice"
            },
            "geometry": {
                "type": "Point",
                "coordinates": [
                    -119.19465594621097,
                    40.77773823183257
                ]
            }
        },
        {
            "type": "Feature",
            "properties": {
                "ref": "ice"
            },
            "geometry": {
                "type": "Point",
                "coordinates": [
                    -119.21494117141641,
                    40.78140593764704
                ]
            }
        },
        {
            "type": "Feature",
            "properties": {
                "ref": "ice"
            },
            "geometry": {
                "type": "Point",
                "coordinates": [
                    -119.21854497752015,
                    40.79490268851714
                ]
            }
        },
        {
            "type": "Feature",
            "properties": {
                "name": "The Temple",
                "ref": "temple"
            },
            "geometry": {
                "type": "Point",
                "coordinates": [
                    -119.20006325383629,
                    40.791273046762804
                ]
            }
        },
        {
            "type": "Feature",
            "properties": {
                "ref": "bus",
                "name": "Burner Express Bus"
            },
            "geometry": {
                "type": "Point",
                "coordinates": [
                    -119.22081889831225,
                    40.776973356688735
                ]
            }
        },
        {
            "type": "Feature",
            "properties": {
                "ref": "recycle",
                "name": "Recycle Camp"
            },
            "geometry": {
                "type": "Point",
                "coordinates": [
                    -119.21484497399685,
                    40.779740829383066
                ]
            }
        },
        {
            "type": "Feature",
            "properties": {
                "ref": "info",
                "name": "Playa Info"
            },
            "geometry": {
                "type": "Point",
                "coordinates": [
                    -119.21277173485525,
                    40.781125506928376
                ]
            }
        }
    ]
}